[
    {
        "name": "Strips & Zo",
        "adress": "Boterstraat 17",
        "city": "Alkmaar",
        "telephone": "06-50459948",
        "website": "www.stripsenzo.nl",
        "latitude": "52.63021908974951",
        "longitude": "4.7487732834666865"
    },
    {
        "name": "Beeldverhaal",
        "adress": "Schutterstraat 27",
        "city": "Almere",
        "telephone": "036-5402672",
        "website": "www.hetbeeldverhaal.nl",
        "latitude": "52.37096564239985",
        "longitude": "5.218331669555687"
    },
    {
        "name": "Antiquariaat de Spreng",
        "adress": "Boompjes 1",
        "city": "Almkerk",
        "telephone": "0183-403402",
        "latitude": "51.77571748576932",
        "longitude": "4.966175167692247"
    },
    {
        "name": "T Ezelsoor",
        "adress": "Achter de Arnhemse Poortwal 21",
        "city": "Amersfoort",
        "telephone": "033-4621250",
        "latitude": "52.153536829020894",
        "longitude": "5.386358984891093"
    },
    {
        "name": "Fantasia",
        "adress": "Buitenveldertselaan 174",
        "city": "Amsterdam",
        "telephone": "020-6427888",
        "latitude": "52.325022182566194",
        "longitude": "4.867911313731082"
    },
    {
        "name": "Snoek Strips",
        "adress": "Linnaeusstraat 205",
        "city": "Amsterdam",
        "telephone": "020-4688109",
        "latitude": "52.35666284186291",
        "longitude": "4.927675125378644"
    },
    {
        "name": "De Stripspecialist",
        "adress": "Boschstraat 68",
        "city": "Breda",
        "telephone": "076-5284700",
        "website": "destripspecialist.nl ",
        "latitude": "51.59048346678988",
        "longitude": "4.78242643885197"
    },
    {
        "name": "t Snuffel",
        "adress": "Gasthuisstraat 9",
        "city": "Bredevoort",
        "telephone": "0543-451703",
        "latitude": "51.943335229922255",
        "longitude": "6.618807313232677"
    },
    {
        "name": "Lektuurhuis ",
        "adress": "Markt 44",
        "city": "Culemborg",
        "telephone": "0345-514666",
        "latitude": "51.95709353647487",
        "longitude": "5.225926898379778"
    },
    {
        "name": "Neat Stuff",
        "adress": "Orthenstraat 9",
        "city": "Den Bosch",
        "telephone": "073-8229002",
        "website": "neatstuff@hotmail.com",
        "latitude": "51.69100939305067",
        "longitude": "5.301476054195972"
    }
]